{
"type": "FeatureCollection",
"name": "bombeiros",
"crs": { "type": "name", "properties": { "name": "urn:ogc:def:crs:OGC:1.3:CRS84" } },
"features": [
{ "type": "Feature", "properties": { "nome": "Pel Lajeado / 6º BBM", "municipio": "Arroio do Meio", "cod_mun": "4301008" }, "geometry": { "type": "Point", "coordinates": [ -51.965085100000017, -29.362427349193158 ] } },
{ "type": "Feature", "properties": { "nome": "Gr Aeroporto / 5º BBM", "municipio": "Caxias do Sul", "cod_mun": "4305108" }, "geometry": { "type": "Point", "coordinates": [ -51.02404916, -29.102412689197596 ] } },
{ "type": "Feature", "properties": { "nome": "Pel Bento Gonçalves / 5º BBM", "municipio": "Bento Gonçalves", "cod_mun": "4302105" }, "geometry": { "type": "Point", "coordinates": [ -51.552065140000025, -29.1257185691972 ] } },
{ "type": "Feature", "properties": { "nome": "Pel Vacaria / 5º BBM", "municipio": "Bom Jesus", "cod_mun": "4302303" }, "geometry": { "type": "Point", "coordinates": [ -50.423286589999975, -28.598315309206431 ] } },
{ "type": "Feature", "properties": { "nome": "Pel Estrela / 6º BBM", "municipio": "Bom Retiro do Sul", "cod_mun": "4302402" }, "geometry": { "type": "Point", "coordinates": [ -51.922494, -29.637751769188494 ] } },
{ "type": "Feature", "properties": { "nome": "Pel Guaporé / 7º BBM", "municipio": "Dois Lajeados", "cod_mun": "4306452" }, "geometry": { "type": "Point", "coordinates": [ -51.843076170000025, -28.976630559199773 ] } },
{ "type": "Feature", "properties": { "nome": "Gr Encantado / 6º BBM", "municipio": "Capitão", "cod_mun": "4304697" }, "geometry": { "type": "Point", "coordinates": [ -51.98432139, -29.283199909194494 ] } },
{ "type": "Feature", "properties": { "nome": "Pel Bento Gonçalves / 5º BBM", "municipio": "Carlos Barbosa", "cod_mun": "4304804" }, "geometry": { "type": "Point", "coordinates": [ -51.50459729, -29.321790149193845 ] } },
{ "type": "Feature", "properties": { "nome": "Pel Lagoa Vermelha / 7º BBM", "municipio": "Ciríaco", "cod_mun": "4305504" }, "geometry": { "type": "Point", "coordinates": [ -51.9175012, -28.346295119210971 ] } },
{ "type": "Feature", "properties": { "nome": "Pel Estrela / 6º BBM", "municipio": "Estrela", "cod_mun": "4307807" }, "geometry": { "type": "Point", "coordinates": [ -51.92000119, -29.509299909190624 ] } },
{ "type": "Feature", "properties": { "nome": "Pel Farroupilha / 5º BBM", "municipio": "Farroupilha", "cod_mun": "4307906" }, "geometry": { "type": "Point", "coordinates": [ -51.365931390000014, -29.210103889195771 ] } },
{ "type": "Feature", "properties": { "nome": "Pel Bento Gonçalves / 5º BBM", "municipio": "Garibaldi", "cod_mun": "4308607" }, "geometry": { "type": "Point", "coordinates": [ -51.581917420000018, -29.241458129195216 ] } },
{ "type": "Feature", "properties": { "nome": "Pel Veranópolis / 5º BBM", "municipio": "Nova Prata", "cod_mun": "4313300" }, "geometry": { "type": "Point", "coordinates": [ -51.608455129999982, -28.760862549203587 ] } },
{ "type": "Feature", "properties": { "nome": "Pel Lajeado / 6º BBM", "municipio": "Lajeado", "cod_mun": "4311403" }, "geometry": { "type": "Point", "coordinates": [ -52.007127439999984, -29.443898269191717 ] } },
{ "type": "Feature", "properties": { "nome": "Pel Montenegro / 2º BBM", "municipio": "Montenegro", "cod_mun": "4312401" }, "geometry": { "type": "Point", "coordinates": [ -51.50295310000002, -29.710237619187236 ] } },
{ "type": "Feature", "properties": { "nome": "Pel Lajeado / 6º BBM", "municipio": "Marques de Souza", "cod_mun": "4312054" }, "geometry": { "type": "Point", "coordinates": [ -52.148772539999982, -29.28975131919438 ] } },
{ "type": "Feature", "properties": { "nome": "Gr Encantado / 6º BBM", "municipio": "Muçum", "cod_mun": "4312609" }, "geometry": { "type": "Point", "coordinates": [ -51.815566139999987, -29.140423159196953 ] } },
{ "type": "Feature", "properties": { "nome": "Pel Santa Cruz do Sul / 6º BBM", "municipio": "Passo do Sobrado", "cod_mun": "4314076" }, "geometry": { "type": "Point", "coordinates": [ -52.245136469999977, -29.759259969186456 ] } },
{ "type": "Feature", "properties": { "nome": "Pel Passo Fundo / 7º BBM", "municipio": "Passo Fundo", "cod_mun": "4314100" }, "geometry": { "type": "Point", "coordinates": [ -52.452466459999989, -28.268973359212396 ] } },
{ "type": "Feature", "properties": { "nome": "Pel Santa Cruz do Sul / 6º BBM", "municipio": "Santa Cruz do Sul", "cod_mun": "4316808" }, "geometry": { "type": "Point", "coordinates": [ -52.40723934, -29.646641939188321 ] } },
{ "type": "Feature", "properties": { "nome": "Pel Montenegro / 2º BBM", "municipio": "Salvador do Sul", "cod_mun": "4316501" }, "geometry": { "type": "Point", "coordinates": [ -51.53546995, -29.458039529191513 ] } },
{ "type": "Feature", "properties": { "nome": "Pel Guaporé / 7º BBM", "municipio": "Serafina Corrêa", "cod_mun": "4320404" }, "geometry": { "type": "Point", "coordinates": [ -51.933630979999975, -28.701592589204655 ] } },
{ "type": "Feature", "properties": { "nome": "Pel Canela / 5º BBM", "municipio": "São Francisco de Paula", "cod_mun": "4318200" }, "geometry": { "type": "Point", "coordinates": [ -50.559709469999973, -29.19971960919591 ] } },
{ "type": "Feature", "properties": { "nome": "Pel São Marcos / 5º BBM", "municipio": "São Marcos", "cod_mun": "4319000" }, "geometry": { "type": "Point", "coordinates": [ -51.06509448000002, -28.963113159200002 ] } },
{ "type": "Feature", "properties": { "nome": "Pel Santa Cruz do Sul / 6º BBM", "municipio": "Sinimbu", "cod_mun": "4320677" }, "geometry": { "type": "Point", "coordinates": [ -52.568978249999986, -29.444940169191728 ] } },
{ "type": "Feature", "properties": { "nome": "Pel Soledade / 7º BBM", "municipio": "Soledade", "cod_mun": "4320800" }, "geometry": { "type": "Point", "coordinates": [ -52.537332989999982, -28.839425219202202 ] } },
{ "type": "Feature", "properties": { "nome": "Pel Estrela / 6º BBM", "municipio": "Teutônia", "cod_mun": "4321451" }, "geometry": { "type": "Point", "coordinates": [ -51.77803637, -29.471533679191261 ] } },
{ "type": "Feature", "properties": { "nome": "Pel Venâncio Aires / 6º BBM", "municipio": "Venâncio Aires", "cod_mun": "4322608" }, "geometry": { "type": "Point", "coordinates": [ -52.19523812, -29.578563029189468 ] } }
]
}
